[
 {
  "date_open": "February 26, 1919",
  "latLong": "44.35°N 68.21°W",
  "location": "Maine",
  "name": "Acadia",
  "summary": "Covering most of Mount Desert Island and other coastal islands, Acadia features the tallest mountain on the Atlantic coast of the United States, granite peaks, ocean shoreline, woodlands, and lakes. There are freshwater, estuary, forest, and intertidal habitats."
 },
 {
  "date_open": "October 31, 1988",
  "latLong": "14.25°S 170.68°W",
  "location": "American Samoa",
  "name": "American Samoa",
  "summary": "The southernmost national park is on three Samoan islands and protects coral reefs, rainforests, volcanic mountains, and white beaches. The area is also home to flying foxes, brown boobies, sea turtles, and  species of fish."
 },
 {
  "date_open": "November 12, 1971",
  "latLong": "38.68°N 109.57°W",
  "location": "Utah",
  "name": "Arches",
  "summary": "This site features more than , natural sandstone arches, with some of the most popular arches in the park being Delicate Arch, Landscape Arch and Double Arch. Millions of years of erosion have created these structures located in a desert climate where the arid ground has life-sustaining biological soil crusts and potholes that serve as natural water-collecting basins. Other geologic formations include stone pinnacles, fins, and balancing rocks."
 },
 {
  "date_open": "November 10, 1978",
  "latLong": "43.75°N 102.50°W",
  "location": "South Dakota",
  "name": "Badlands",
  "summary": "The Badlands are a collection of buttes, pinnacles, spires, and mixed-grass prairies. The White River Badlands contain the largest assemblage of known late Eocene and Oligocene mammal fossils. The wildlife includes bison, bighorn sheep, black-footed ferrets, and prairie dogs."
 },
 {
  "date_open": "June 12, 1944",
  "latLong": "29.25°N 103.25°W",
  "location": "Texas",
  "name": "Big Bend ",
  "summary": "Named for the prominent bend in the Rio Grande along the U.S.–Mexico border, this park encompasses a large and remote part of the Chihuahuan Desert. Its main attraction is backcountry recreation in the arid Chisos Mountains and in canyons along the river. A wide variety of Cretaceous and Tertiary fossils as well as cultural artifacts of Native Americans also exist within its borders. (BR)"
 },
 {
  "date_open": "June 28, 1980",
  "latLong": "25.65°N 80.08°W",
  "location": "Florida",
  "name": "Biscayne",
  "summary": "Located in Biscayne Bay, this park at the north end of the Florida Keys has four interrelated marine ecosystems: mangrove forest, the Bay, the Keys, and coral reefs. Threatened animals include the West Indian manatee, American crocodile, various sea turtles, and peregrine falcon."
 },
 {
  "date_open": "October 21, 1999",
  "latLong": "38.57°N 107.72°W",
  "location": "Colorado",
  "name": "Black Canyon of the Gunnison",
  "summary": "The park protects a quarter of the Gunnison River, which slices sheer canyon walls from dark Precambrian-era rock. The canyon features some of the steepest cliffs and oldest rock in North America, and is a popular site for river rafting and rock climbing. The deep, narrow canyon is composed of gneiss and schist which appears black when in shadow."
 },
 {
  "date_open": "February 25, 1928",
  "latLong": "37.57°N 112.18°W",
  "location": "Utah",
  "name": "Bryce Canyon",
  "summary": "Bryce Canyon is a geological amphitheater on the Paunsaugunt Plateau with hundreds of tall, multicolored sandstone hoodoos formed by erosion. The region was originally settled by Native Americans and later by Mormon pioneers."
 },
 {
  "date_open": "September 12, 1964",
  "latLong": "38.2°N 109.93°W",
  "location": "Utah",
  "name": "Canyonlands",
  "summary": "This landscape was eroded into a maze of canyons, buttes, and mesas by the combined efforts of the Colorado River, Green River, and their tributaries, which divide the park into three districts. The park also contains rock pinnacles and arches, as well as artifacts from Ancient Pueblo peoples."
 },
 {
  "date_open": "December 18, 1971",
  "latLong": "38.20°N 111.17°W",
  "location": "Utah",
  "name": "Capitol Reef",
  "summary": "The parks Waterpocket Fold is a -mile ( km) monocline that exhibits the earths diverse geologic layers. Other natural features include monoliths, cliffs, and sandstone domes shaped like the United States Capitol."
 },
 {
  "date_open": "May 14, 1930",
  "latLong": "32.17°N 104.44°W",
  "location": "New Mexico",
  "name": "Carlsbad Caverns",
  "summary": "Carlsbad Caverns has  caves, the longest of which is over  miles ( km) long. The Big Room is almost , feet (, m) long, and the caves are home to over , Mexican free-tailed bats and sixteen other species. Above ground are the Chihuahuan Desert and Rattlesnake Springs. (WHS)"
 },
 {
  "date_open": "March 5, 1980",
  "latLong": "34.01°N 119.42°W",
  "location": "California",
  "name": "Channel Islands ",
  "summary": "Five of the eight Channel Islands are protected, and half of the parks area is underwater. The islands have a unique Mediterranean ecosystem originally settled by the Chumash people. They are home to over , species of land plants and animals, and  are unique to them, including the island fox. Ferry services offer transportation to the islands from the mainland. (BR)"
 },
 {
  "date_open": "November 10, 2003",
  "latLong": "33.78°N 80.78°W",
  "location": "South Carolina",
  "name": "Congaree ",
  "summary": "On the Congaree River, this park is the largest portion of old-growth floodplain forest left in North America. Some of the trees are the tallest in the eastern United States. An elevated walkway called the Boardwalk Loop guides visitors through the swamp. (BR)"
 },
 {
  "date_open": "May 22, 1902",
  "latLong": "42.94°N 122.1°W",
  "location": "Oregon",
  "name": "Crater Lake",
  "summary": "Crater Lake lies in the caldera of an ancient volcano called Mount Mazama that collapsed , years ago. The lake is the deepest in the United States and is noted for its vivid blue color and water clarity. Wizard Island and the Phantom Ship are more recent volcanic formations within the caldera. As the lake has no inlets or outlets, the lake is replenished only by precipitation."
 },
 {
  "date_open": "October 11, 2000",
  "latLong": "41.24°N 81.55°W",
  "location": "Ohio",
  "name": "Cuyahoga Valley",
  "summary": "This park along the Cuyahoga River has waterfalls, hills, trails, and exhibits on early rural living. The Ohio and Erie Canal Towpath Trail follows the Ohio and Erie Canal, where mules towed canal boats. The park has numerous historic homes, bridges, and structures, and also offers a scenic train ride."
 },
 {
  "date_open": "October 31, 1994",
  "latLong": "36.24°N 116.82°W",
  "location": "California, Nevada",
  "name": "Death Valley ",
  "summary": "Death Valley is the hottest, lowest, and driest place in the United States, with daytime temperatures that have exceeded  °F ( °C). The park protects Badwater Basin and its vast salt flats located at the lowest elevation in North America, − ft (− m). The park also protects canyons, badlands, sand dunes, mountain ranges, historic mines, springs, and more than  species of plants which grow in this geologic graben. (BR)"
 },
 {
  "date_open": "February 26, 1917",
  "latLong": "63.33°N 150.50°W",
  "location": "Alaska",
  "name": "Denali ",
  "summary": "Centered on Denali, the tallest mountain in North America, Denali is serviced by a single road leading to Wonder Lake. Denali and other peaks of the Alaska Range are covered with long glaciers and boreal forest. Wildlife includes grizzly bears, Dall sheep, caribou, and gray wolves. (BR)"
 },
 {
  "date_open": "October 26, 1992",
  "latLong": "24.63°N 82.87°W",
  "location": "Florida",
  "name": "Dry Tortugas ",
  "summary": "The islands of the Dry Tortugas, at the westernmost end of the Florida Keys, are the site of Fort Jefferson, a Civil War-era fort that is the largest masonry structure in the Western Hemisphere. The park is home to undisturbed coral reefs and shipwrecks, and is only accessible by plane or boat. (BR)"
 },
 {
  "date_open": "May 30, 1934",
  "latLong": "25.32°N 80.93°W",
  "location": "Florida",
  "name": "Everglades ",
  "summary": "The Everglades are the largest tropical wilderness in the United States. This mangrove and tropical rainforest ecosystem and marine estuary is home to  protected species, including the Florida panther, American crocodile, and West Indian manatee. Some areas have been drained and developed; restoration projects aim to restore the ecology. (WHS) (BR)"
 },
 {
  "date_open": "December 2, 1980",
  "latLong": "67.78°N 153.30°W",
  "location": "Alaska",
  "name": "Gates of the Arctic",
  "summary": "The countrys northernmost park protects an expanse of pure wilderness in Alaskas Brooks Range and has no park facilities. The land is home to Alaska Natives who have relied on the land and caribou for , years."
 },
 {
  "date_open": "February 22, 2018",
  "latLong": "38.63°N 90.19°W",
  "location": "Missouri",
  "name": "Gateway Arch",
  "summary": "The Gateway Arch is a -foot ( m) (both high and wide) catenary arch built to commemorate the Lewis and Clark Expedition, initiated by Thomas Jefferson, and the subsequent westward expansion of the country. The nearby Old Courthouse, across a greenway to the west of the arch, was the first site of the Dred Scott case about slavery. A museum, located in the underground visitor center below the arch, describes the archs construction and the countrys westward expansion."
 },
 {
  "date_open": "May 11, 1910",
  "latLong": "48.80°N 114.00°W",
  "location": "Montana",
  "name": "Glacier ",
  "summary": "The U.S. half of Waterton-Glacier International Peace Park, this park includes  glaciers and  named lakes surrounded by Rocky Mountain peaks. There are historic hotels and a landmark road called the Going-to-the-Sun Road in this region of rapidly receding glaciers. The local mountains, formed by an overthrust, expose Paleozoic fossils including trilobites, mollusks, giant ferns and dinosaurs. (WHS) (BR)"
 },
 {
  "date_open": "December 2, 1980",
  "latLong": "58.50°N 137.00°W",
  "location": "Alaska",
  "name": "Glacier Bay ",
  "summary": "Glacier Bay contains tidewater glaciers, mountains, fjords, and a temperate rainforest, and is home to large populations of grizzly bears, mountain goats, whales, seals, and eagles. When discovered in  by George Vancouver, the entire bay was covered by ice, but the glaciers have since receded more than  miles ( km). (WHS) (BR)"
 },
 {
  "date_open": "February 26, 1919",
  "latLong": "36.06°N 112.14°W",
  "location": "Arizona",
  "name": "Grand Canyon",
  "summary": "The Grand Canyon, carved by the mighty Colorado River, is  miles ( km) long, up to  mile (. km) deep, and up to  miles ( km) wide. Millions of years of erosion have exposed the multicolored layers of the Colorado Plateau in mesas and canyon walls, visible from both the north and south rims, or from a number of trails that descend into the canyon itself. (WHS)"
 },
 {
  "date_open": "February 26, 1929",
  "latLong": "43.73°N 110.80°W",
  "location": "Wyoming",
  "name": "Grand Teton",
  "summary": "Grand Teton is the tallest mountain in the Teton Range. The parks historic Jackson Hole and reflective piedmont lakes teem with endemic wildlife, with a backdrop of craggy mountains that rise abruptly from the sage-covered valley."
 },
 {
  "date_open": "October 27, 1986",
  "latLong": "38.98°N 114.30°W",
  "location": "Nevada",
  "name": "Great Basin",
  "summary": "Based around Nevadas second tallest mountain, Wheeler Peak, Great Basin National Park contains ,-year-old bristlecone pines, a rock glacier, and the limestone Lehman Caves. Due to its remote location, the park has some of the countrys darkest night skies. Wildlife includes the Townsends big-eared bat, pronghorn, and Bonneville cutthroat trout."
 },
 {
  "date_open": "September 13, 2004",
  "latLong": "37.73°N 105.51°W",
  "location": "Colorado",
  "name": "Great Sand Dunes",
  "summary": "The tallest sand dunes in North America, up to  feet ( m) tall, were formed by deposits of the ancient Rio Grande in the San Luis Valley. Abutting a variety of grasslands, shrublands, and wetlands, the park also has alpine lakes, six ,-foot mountains, and old-growth forests."
 },
 {
  "date_open": "June 15, 1934",
  "latLong": "35.68°N 83.53°W",
  "location": "Tennessee, North Carolina",
  "name": "Great Smoky Mountains ",
  "summary": "The Great Smoky Mountains, part of the Appalachian Mountains, span a wide range of elevations, making them home to over  vertebrate species,  tree species, and  plant species. Hiking is the parks main attraction, with over  miles (, km) of trails, including  miles ( km) of the Appalachian Trail. Other activities include fishing, horseback riding, and touring nearly  historic structures. (WHS) (BR)"
 },
 {
  "date_open": "October 15, 1966",
  "latLong": "31.92°N 104.87°W",
  "location": "Texas",
  "name": "Guadalupe Mountains",
  "summary": "This park contains Guadalupe Peak, the highest point in Texas, as well as the scenic McKittrick Canyon filled with bigtooth maples, a corner of the arid Chihuahuan Desert, and a fossilized coral reef from the Permian era."
 },
 {
  "date_open": "August 1, 1916",
  "latLong": "20.72°N 156.17°W",
  "location": "Hawaii",
  "name": "Haleakalā ",
  "summary": "The Haleakalā volcano on Maui features a very large crater with numerous cinder cones, Hosmers Grove of alien trees, the Kipahulu sections scenic pools of freshwater fish, and the native Hawaiian goose. The park protects the greatest number of endangered species within a U.S. National Park. (BR)"
 },
 {
  "date_open": "August 1, 1916",
  "latLong": "19.38°N 155.20°W",
  "location": "Hawaii",
  "name": "Hawaiʻi Volcanoes ",
  "summary": "This park on the Big Island protects the Kīlauea and Mauna Loa volcanoes, two of the worlds most active geological features. Diverse ecosystems range from tropical forests at sea level to barren lava beds at more than , feet (, m). (WHS) (BR)"
 },
 {
  "date_open": "March 4, 1921",
  "latLong": "34.51°N 93.05°W",
  "location": "Arkansas",
  "name": "Hot Springs",
  "summary": "Hot Springs was established as a federal reserve by Congress on April , —the oldest area managed by the National Park Service. Congress redesignated Hot Springs as a national park on March , . Natural hot springs flow out of the Ouachita Mountains, providing opportunities for relaxation in a historic setting. Bathhouse Row preserves numerous examples of th-century architecture. Hot Springs is the first national park in a city and was the smallest national park until February ,  when the Jefferson National Expansion Memorial was redesignated Gateway Arch National Park."
 },
 {
  "date_open": "April 3, 1940",
  "latLong": "48.10°N 88.55°W",
  "location": "Michigan",
  "name": "Isle Royale ",
  "summary": "The largest island in Lake Superior is a place of isolation and wilderness. Along with its many shipwrecks, waterways, and hiking trails, the park also includes over  smaller islands within . miles (. km) of its shores. There are only  mammal species on the entire island, though the relationship between its wolf and moose populations is especially unique. (BR)"
 },
 {
  "date_open": "October 31, 1994",
  "latLong": "33.79°N 115.90°W",
  "location": "California",
  "name": "Joshua Tree ",
  "summary": "Covering large areas of the Colorado and Mojave Deserts and the Little San Bernardino Mountains, this desert landscape is populated by vast stands of Joshua trees. Large changes in elevation reveal various contrasting environments including bleached sand dunes, dry lakes, rugged mountains, and maze-like clusters of monzogranite monoliths. (BR)"
 },
 {
  "date_open": "December 2, 1980",
  "latLong": "58.50°N 155.00°W",
  "location": "Alaska",
  "name": "Katmai",
  "summary": "This park on the Alaska Peninsula protects the Valley of Ten Thousand Smokes, an ash flow formed by the  eruption of Novarupta, as well as Mount Katmai. Over , grizzly bears come here each year to catch spawning salmon. Other wildlife includes caribou, wolves, moose, and wolverines."
 },
 {
  "date_open": "December 2, 1980",
  "latLong": "59.92°N 149.65°W",
  "location": "Alaska",
  "name": "Kenai Fjords",
  "summary": "Near Seward on the Kenai Peninsula, this park protects the Harding Icefield and at least  glaciers and fjords stemming from it. The only area accessible to the public by road is Exit Glacier; the rest must be viewed or reached from boat tours."
 },
 {
  "date_open": "March 4, 1940",
  "latLong": "36.80°N 118.55°W",
  "location": "California",
  "name": "Kings Canyon ",
  "summary": "Home to several giant sequoia groves and the General Grant Tree, the worlds second largest measured tree, this park also features part of the Kings River, sculptor of the dramatic granite canyon that is its namesake, and the San Joaquin River, as well as Boyden Cave. (BR)"
 },
 {
  "date_open": "December 2, 1980",
  "latLong": "67.55°N 159.28°W",
  "location": "Alaska",
  "name": "Kobuk Valley",
  "summary": "Kobuk Valley protects  miles ( km) of the Kobuk River and three regions of sand dunes. Created by glaciers, the Great Kobuk, Little Kobuk, and Hunt River Sand Dunes can reach  feet ( m) high and  °F ( °C), and they are the largest dunes in the Arctic. Twice a year, half a million caribou migrate through the dunes and across river bluffs that expose well-preserved ice age fossils."
 },
 {
  "date_open": "December 2, 1980",
  "latLong": "60.97°N 153.42°W",
  "location": "Alaska",
  "name": "Lake Clark",
  "summary": "The region around Lake Clark features four active volcanoes, including Mount Redoubt, as well as an abundance of rivers, glaciers, and waterfalls. Temperate rainforests, a tundra plateau, and three mountain ranges complete the landscape."
 },
 {
  "date_open": "August 9, 1916",
  "latLong": "40.49°N 121.51°W",
  "location": "California",
  "name": "Lassen Volcanic",
  "summary": "Lassen Peak, the largest plug dome volcano in the world, is joined by all three other types of volcanoes in this park: shield, cinder dome, and composite. Though Lassen itself last erupted in , most of the rest of the park is continuously active. Numerous hydrothermal features, including fumaroles, boiling pools, and bubbling mud pots, are heated by molten rock from beneath the peak."
 },
 {
  "date_open": "July 1, 1941",
  "latLong": "37.18°N 86.10°W",
  "location": "Kentucky",
  "name": "Mammoth Cave ",
  "summary": "With more than  miles ( km) of passageways explored, Mammoth Cave is the worlds longest known cave system. Subterranean wildlife includes eight bat species, Kentucky cave shrimp, Northern cavefish, and cave salamanders. Above ground, the park provides recreation on the Green River,  miles of hiking trails, and plenty of sinkholes and springs. (WHS) (BR)"
 },
 {
  "date_open": "June 29, 1906",
  "latLong": "37.18°N 108.49°W",
  "location": "Colorado",
  "name": "Mesa Verde",
  "summary": "This area constitutes over , archaeological sites of the Ancestral Puebloan people, who lived here and elsewhere in the Four Corners region for at least  years. Cliff dwellings built in the th and th centuries include Cliff Palace, which has  rooms and  kivas, and the Balcony House, with its many passages and tunnels. (WHS)"
 },
 {
  "date_open": "March 2, 1899",
  "latLong": "46.85°N 121.75°W",
  "location": "Washington",
  "name": "Mount Rainier",
  "summary": "Mount Rainier, an active stratovolcano, is the most prominent peak in the Cascades and is covered by  named glaciers including Carbon Glacier and Emmons Glacier, the largest in the contiguous United States. The mountain is popular for climbing, and more than half of the park is covered by subalpine and alpine forests and meadows seasonally in bloom with wildflowers. Paradise on the south slope is the snowiest place on Earth where snowfall is measured regularly. The Longmire visitor center is the start of the Wonderland Trail, which encircles the mountain."
 },
 {
  "date_open": "October 2, 1968",
  "latLong": "48.70°N 121.20°W",
  "location": "Washington",
  "name": "North Cascades",
  "summary": "This complex includes two geographically distinct units of the national park, as well as Ross Lake and Lake Chelan National Recreation Areas. The highly glaciated mountains are spectacular examples of Cascade geology. Popular hiking and climbing areas include Cascade Pass, Mount Shuksan, Mount Triumph, and Eldorado Peak."
 },
 {
  "date_open": "June 29, 1938",
  "latLong": "47.97°N 123.50°W",
  "location": "Washington",
  "name": "Olympic ",
  "summary": "Situated on the Olympic Peninsula, this park includes a wide range of ecosystems from Pacific shoreline to temperate rainforests to the alpine slopes of the Olympic Mountains, the tallest of which is Mount Olympus. The Hoh Rainforest and Quinault Rainforest are the wettest area in the contiguous United States, with the Hoh receiving an average of almost  ft (. m) of rain every year. (WHS) (BR)"
 },
 {
  "date_open": "December 9, 1962",
  "latLong": "35.07°N 109.78°W",
  "location": "Arizona",
  "name": "Petrified Forest",
  "summary": "This portion of the Chinle Formation has a large concentration of -million-year-old petrified wood. The surrounding Painted Desert features eroded cliffs of red-hued volcanic rock called bentonite. Dinosaur fossils and over  Native American sites are also protected in this park."
 },
 {
  "date_open": "January 10, 2013",
  "latLong": "36.48°N 121.16°W",
  "location": "California",
  "name": "Pinnacles",
  "summary": "Named for the eroded leftovers of a portion of an extinct volcano, the parks massive black and gold monoliths of andesite and rhyolite are a popular destination for rock climbers. Hikers have access to trails crossing the Coast Range wilderness. The park is home to the endangered California condor (Gymnogyps californianus) and one of the few locations in the world where these extremely rare birds can be seen in the wild. Pinnacles also supports a dense population of prairie falcons, and more than  species of bat which populate its talus caves."
 },
 {
  "date_open": "October 2, 1968",
  "latLong": "41.30°N 124.00°W",
  "location": "California",
  "name": "Redwood",
  "summary": "This park and the co-managed state parks protect almost half of all remaining coastal redwoods, the tallest trees on earth. There are three large river systems in this very seismically active area, and  miles ( km) of protected coastline reveal tide pools and seastacks. The prairie, estuary, coast, river, and forest ecosystems contain a wide variety of animal and plant species. (WHS)"
 },
 {
  "date_open": "January 26, 1915",
  "latLong": "40.40°N 105.58°W",
  "location": "Colorado",
  "name": "Rocky Mountain ",
  "summary": "Bisected north to south by the Continental Divide, this portion of the Rockies has ecosystems varying from over  riparian lakes to montane and subalpine forests to treeless alpine tundra. Wildlife including mule deer, bighorn sheep, black bears, and cougars inhabit its igneous mountains and glacial valleys. Longs Peak, a classic Colorado fourteener, and the scenic Bear Lake are popular destinations, as well as the historic Trail Ridge Road, which reaches an elevation of more than , feet (, m). (BR)"
 },
 {
  "date_open": "October 14, 1994",
  "latLong": "32.25°N 110.50°W",
  "location": "Arizona",
  "name": "Saguaro",
  "summary": "Split into the separate Rincon Mountain and Tucson Mountain districts, this park is evidence that the dry Sonoran Desert is still home to a great variety of life spanning six biotic communities. Beyond the namesake giant saguaro cacti, there are barrel cacti, chollas, and prickly pears, as well as lesser long-nosed bats, spotted owls, and javelinas."
 },
 {
  "date_open": "September 25, 1890",
  "latLong": "36.43°N 118.68°W",
  "location": "California",
  "name": "Sequoia ",
  "summary": "This park protects the Giant Forest, which boasts some of the worlds largest trees, the General Sherman being the largest measured tree in the park. Other features include over  caves, a long segment of the Sierra Nevada including the tallest mountain in the contiguous United States, and Moro Rock, a large granite dome. (BR)"
 },
 {
  "date_open": "December 26, 1935",
  "latLong": "38.53°N 78.35°W",
  "location": "Virginia",
  "name": "Shenandoah",
  "summary": "Shenandoahs Blue Ridge Mountains are covered by hardwood forests that teem with a wide variety of wildlife. The Skyline Drive and Appalachian Trail run the entire length of this narrow park, along with more than  miles ( km) of hiking trails passing scenic overlooks and cataracts of the Shenandoah River."
 },
 {
  "date_open": "November 10, 1978",
  "latLong": "46.97°N 103.45°W",
  "location": "North Dakota",
  "name": "Theodore Roosevelt",
  "summary": "This region that enticed and influenced President Theodore Roosevelt consists of a park of three units in the northern badlands. Besides Roosevelts historic cabin, there are numerous scenic drives and backcountry hiking opportunities. Wildlife includes American bison, pronghorn, bighorn sheep, and wild horses."
 },
 {
  "date_open": "August 2, 1956",
  "latLong": "18.33°N 64.73°W",
  "location": "United States Virgin Islands",
  "name": "Virgin Islands ",
  "summary": "This island park on Saint John preserves Taíno archaeological sites and the ruins of sugar plantations from Columbuss time, as well as all the natural environs. Surrounding the pristine beaches are mangrove forests, seagrass beds, and coral reefs. (BR)"
 },
 {
  "date_open": "January 8, 1971",
  "latLong": "48.50°N 92.88°W",
  "location": "Minnesota",
  "name": "Voyageurs",
  "summary": "This park protecting four lakes near the Canada–US border is a site for canoeing, kayaking, and fishing. The park also preserves a history populated by Ojibwe Native Americans, French fur traders called voyageurs, and gold miners. Formed by glaciers, the region features tall bluffs, rock gardens, islands, bays, and several historic buildings."
 },
 {
  "date_open": "January 9, 1903",
  "latLong": "43.57°N 103.48°W",
  "location": "South Dakota",
  "name": "Wind Cave",
  "summary": "Wind Cave is distinctive for its calcite fin formations called boxwork, a unique formation rarely found elsewhere, and needle-like growths called frostwork. The cave is one of the longest and most complex caves in the world. Above ground is a mixed-grass prairie with animals such as bison, black-footed ferrets, and prairie dogs, and ponderosa pine forests that are home to cougars and elk. The cave is culturally significant to the Lakota people as the site \"from which Wakan Tanka, the Great Mystery, sent the buffalo out into their hunting grounds.\""
 },
 {
  "date_open": "December 2, 1980",
  "latLong": "61.00°N 142.00°W",
  "location": "Alaska",
  "name": "Wrangell–St. Elias",
  "summary": "An over  million acres (, km) plot of mountainous country—the largest national park in the system—protects the convergence of the Alaska, Chugach, and Wrangell-Saint Elias Ranges, which include many of the continents tallest mountains and volcanoes, including the ,-foot Mount Saint Elias. More than a quarter of the park is covered with glaciers, including the tidewater Hubbard Glacier, piedmont Malaspina Glacier, and valley Nabesna Glacier. (WHS)"
 },
 {
  "date_open": "March 1, 1872",
  "latLong": "44.60°N 110.50°W",
  "location": "Wyoming, Montana, Idaho",
  "name": "Yellowstone ",
  "summary": "Situated on the Yellowstone Caldera, the park has an expansive network of geothermal areas including boiling mud pots, vividly colored hot springs such as Grand Prismatic Spring, and regularly erupting geysers, the best-known being Old Faithful. The yellow-hued Grand Canyon of the Yellowstone River contains several high waterfalls, and four mountain ranges traverse the park. More than  mammal species including gray wolves, grizzly bears, black bears, lynxes, bison, and elk, make this park one of the best wildlife viewing spots in the country. (WHS) (BR)"
 },
 {
  "date_open": "October 1, 1890",
  "latLong": "37.83°N 119.50°W",
  "location": "California",
  "name": "Yosemite",
  "summary": "Yosemite features sheer granite cliffs, exceptionally tall waterfalls, and old-growth forests at a unique intersection of geology and hydrology. Half Dome and El Capitan rise from the parks centerpiece, the glacier-carved Yosemite Valley, and from its vertical walls drop Yosemite Falls, one of North Americas tallest waterfalls at , feet ( m) high. Three giant sequoia groves, along with a pristine wilderness in the heart of the Sierra Nevada, are home to a wide variety of rare plant and animal species. (WHS)"
 },
 {
  "date_open": "November 19, 1919",
  "latLong": "37.30°N 113.05°W",
  "location": "Utah",
  "name": "Zion",
  "summary": "Located at the junction of the Colorado Plateau, Great Basin, and Mojave Desert, this park contains sandstone features such as mesas, rock towers, and canyons, including the Virgin River Narrows. The various sandstone formations and the forks of the Virgin River create a wilderness divided into four ecosystems: desert, riparian, woodland, and coniferous forest."
 }
]
